City_ID,City,Lat,Lng,Max Temp,Humidity,Cloudiness,Wind Speed,Country,Date
0,tazacorte,28.629,-17.9293,20.08,74,0,8.23,ES,1683782506
1,katsuren-haebaru,26.3369,127.8719,26.21,48,20,6.17,JP,1683782507
2,ribeira grande,38.5167,-28.7,15.99,84,26,6.71,PT,1683782507
3,brady,31.1352,-99.3351,21.87,88,100,4.63,US,1683782220
4,jagdalpur,19.0667,82.0333,37.06,21,100,1.84,IN,1683781927
5,mocimboa,-11.3167,40.35,23.62,87,39,2.99,MZ,1683782509
6,tiksi,71.6872,128.8694,-10.02,73,39,12.85,RU,1683782510
7,cooma,-36.2333,149.1333,16.27,40,0,2.8,AU,1683782510
8,edinburgh of the seven seas,-37.0676,-12.3116,14.79,66,100,9.29,SH,1683782511
9,hithadhoo,-0.6,73.0833,28.43,77,99,6.37,MV,1683782511
10,selty,57.3132,52.1345,11.28,68,84,2.47,RU,1683782512
11,qaqortoq,60.7167,-46.0333,1.92,91,100,2.45,GL,1683782513
12,port-aux-francais,-49.35,70.2167,6.62,90,94,12.72,TF,1683782513
13,rexburg,43.826,-111.7897,8.99,61,100,2.06,US,1683782514
14,west island,-12.1568,96.8225,29.99,79,40,9.77,CC,1683782514
15,albany,42.6001,-73.9662,12.18,64,1,1.34,US,1683782407
16,adamstown,-25.066,-130.1015,21.67,61,100,10.36,PN,1683782385
17,keflavik,64.0049,-22.5624,6.95,100,100,4.12,IS,1683782516
18,ca mau,9.1769,105.15,36.15,45,96,0.86,VN,1683782517
19,college,64.8569,-147.8028,15.18,40,75,2.06,US,1683782281
20,alexandria,31.2156,29.9553,20.1,72,99,5.84,EG,1683782441
21,bredasdorp,-34.5322,20.0403,14.18,85,89,4.02,ZA,1683782518
22,khovd,48.0056,91.6419,13.89,44,52,3.39,MN,1683782519
23,saipan,15.1355,145.701,29.8,100,11,5.81,MP,1683782375
24,waitangi,-43.9535,-176.5597,10.46,88,62,3.58,NZ,1683782520
25,lebu,-37.6167,-73.65,11.87,94,77,4.13,CL,1683782521
26,puerto ayora,-0.7393,-90.3518,25.86,97,52,1.34,EC,1683782521
27,ushuaia,-54.8,-68.3,11.81,54,40,4.63,AR,1683782402
28,blackmans bay,-43.0167,147.3167,14.29,63,16,0.99,AU,1683782274
29,olonkinbyen,70.9221,-8.7187,0.34,98,100,6.23,SJ,1683782523
30,invercargill,-46.4,168.35,8.34,95,90,1.34,NZ,1683782524
31,thompson,55.7435,-97.8558,9.09,100,20,3.6,CA,1683782524
32,lerwick,60.1545,-1.1494,8.0,94,47,3.27,GB,1683782525
33,east london,-33.0153,27.9116,18.52,48,0,2.06,ZA,1683782525
34,aasiaat,68.7098,-52.8699,-10.12,91,16,2.97,GL,1683782526
35,bejar,40.3864,-5.7634,9.77,68,73,3.23,ES,1683782156
36,bethel,41.3712,-73.414,12.07,78,0,0.0,US,1683782527
37,linden,6.0,-58.3,22.86,93,93,0.3,GY,1683782114
38,utrik,11.2278,169.8474,27.23,82,95,7.42,MH,1683782528
39,mil'kovo,55.6078,37.7956,14.12,57,69,2.23,RU,1683782529
40,puerto natales,-51.7236,-72.4875,6.2,91,84,2.81,CL,1683782463
41,gisborne,-38.6533,178.0042,12.79,60,87,4.6,NZ,1683782530
42,taixing,32.1667,120.0136,18.3,56,96,2.03,CN,1683782531
43,stanley,54.868,-1.6985,8.73,93,65,1.03,GB,1683782532
44,gornopravdinsk,60.05,69.9,6.11,60,96,4.02,RU,1683782532
45,magadan,59.5667,150.8,4.74,75,20,3.33,RU,1683782533
46,fomeque,4.488,-73.8975,16.42,98,100,0.22,CO,1683782533
47,atafu village,-8.5421,-172.5159,29.3,78,71,7.89,TK,1683782534
48,guardo,42.7897,-4.8482,3.69,88,27,2.54,ES,1683782535
49,porangatu,-13.4408,-49.1486,22.39,60,97,1.42,BR,1683782535
50,ambon,-3.6954,128.1814,30.08,95,40,2.57,ID,1683782536
51,gillette,44.2911,-105.5022,11.14,89,100,9.77,US,1683782408
52,hastings,50.8552,0.5729,9.73,90,46,3.58,GB,1683782537
53,mahmutlar,36.949,36.1923,23.15,43,89,1.24,TR,1683782537
54,grytviken,-54.2811,-36.5092,-2.04,78,24,5.34,GS,1683782538
55,barkot,30.8167,78.2,26.91,22,0,2.18,IN,1683782539
56,codrington,-38.2667,141.9667,17.67,53,2,5.88,AU,1683782539
57,argo,37.6333,22.7333,15.99,77,100,2.45,GR,1683782540
58,tczew,54.0924,18.7779,12.05,72,10,4.07,PL,1683782540
59,sitka,57.0531,-135.33,10.94,62,100,8.75,US,1683782541
60,fale old settlement,-9.3852,-171.2468,29.25,77,7,7.49,TK,1683782542
61,yellowknife,62.456,-114.3525,8.29,53,20,2.06,CA,1683782380
62,sinabang,2.4803,96.3801,29.59,72,100,5.17,ID,1683782543
63,mejit,10.2753,170.8646,27.19,83,98,7.96,MH,1683782543
64,avarua,-21.2078,-159.775,25.03,78,75,6.69,CK,1683782544
65,iskateley,67.6803,53.1512,-0.47,83,61,4.7,RU,1683782544
66,vilyuysk,63.7553,121.6247,2.62,44,100,2.66,RU,1683782545
67,princeville,45.7668,-61.2985,3.51,76,4,3.09,CA,1683782546
68,wailua homesteads,22.0669,-159.378,24.24,85,100,5.66,US,1683782546
69,lihue,21.9789,-159.3672,24.58,87,100,5.66,US,1683782547
70,iqaluit,63.7506,-68.5145,-8.15,79,0,7.72,CA,1683782547
71,copiapo,-27.3667,-70.3333,11.83,61,36,0.86,CL,1683782237
72,bilibino,68.0546,166.4372,4.33,74,92,2.13,RU,1683782548
73,el charco,2.4769,-78.1105,24.27,96,99,1.91,CO,1683782549
74,hermanus,-34.4187,19.2345,13.78,91,84,5.35,ZA,1683782550
75,kodiak,57.79,-152.4072,5.73,93,100,5.66,US,1683782550
76,brookings,44.3114,-96.7984,16.77,86,75,7.2,US,1683782396
77,badger,64.8,-147.5333,15.14,28,75,2.06,US,1683782551
78,smithers,54.7804,-127.1743,14.18,51,100,0.0,CA,1683782385
79,ilulissat,69.2167,-51.1,-1.99,69,100,5.14,GL,1683782552
80,margate,51.3813,1.3862,9.83,88,79,1.34,GB,1683782553
81,khash,28.2211,61.2158,28.31,14,41,2.39,IR,1683782554
82,fortuna,40.5982,-124.1573,12.03,95,100,0.0,US,1683782554
83,ust'-ilimsk,58.0006,102.6619,9.06,34,20,1.65,RU,1683782555
84,longyearbyen,78.2186,15.6401,1.91,80,75,5.14,SJ,1683782555
85,koraput,18.8167,82.7167,33.54,24,100,3.42,IN,1683782556
86,klyuchi,52.2667,79.1667,23.07,40,100,8.45,RU,1683782556
87,talnakh,69.4865,88.3972,-13.77,84,12,5.61,RU,1683782307
88,vadso,70.0744,29.7487,7.09,76,0,5.14,NO,1683782558
89,letlhakane,-21.4167,25.5833,13.08,77,0,3.23,BW,1683782559
90,nahiyat ash shinafiyah,31.5874,44.6602,30.46,17,48,1.26,IQ,1683782559
91,ghat,24.9647,10.1728,19.63,32,60,1.91,LY,1683782560
92,la rioja,42.25,-2.5,4.88,94,22,1.62,ES,1683782561
93,san julian,21.0167,-102.1667,18.91,24,6,4.36,MX,1683782561
94,alofi,-19.0595,-169.9187,25.94,89,10,4.12,NU,1683782562
95,georgetown,5.4112,100.3354,33.96,66,20,3.6,MY,1683782562
96,nantucket,41.2835,-70.0995,13.33,79,0,7.72,US,1683782386
97,lobujya,27.95,86.8167,-6.17,53,0,2.66,NP,1683782564
98,fenghuang,27.9356,109.5996,13.48,89,100,0.99,CN,1683782564
99,swift current,50.2834,-107.8014,12.45,66,0,2.57,CA,1683782565
100,inongo,-1.95,18.2667,21.74,89,67,0.76,CD,1683782565
101,tura,25.5198,90.2201,34.57,33,0,2.73,IN,1683782031
102,hadibu,12.65,54.0333,29.17,61,66,0.8,YE,1683782567
103,live oak,36.9836,-121.9805,12.51,79,0,2.06,US,1683782567
104,nouadhibou,20.931,-17.0347,17.99,94,75,8.23,MR,1683782568
105,cold springs,39.6802,-119.9766,11.32,58,0,5.36,US,1683782569
106,anadyr,64.75,177.4833,4.28,65,0,1.0,RU,1683782569
107,jamestown,42.097,-79.2353,8.8,80,0,3.6,US,1683782570
108,gadzhiyevo,69.2551,33.3362,2.35,99,100,2.24,RU,1683782571
109,tindouf,27.6711,-8.1474,29.44,13,91,2.88,DZ,1683782572
110,chonchi,-42.6128,-73.8092,12.56,98,76,1.05,CL,1683782572
111,karratha,-20.7377,116.8463,28.92,20,22,7.78,AU,1683782573
112,san fernando,15.0286,120.6898,34.85,49,76,2.66,PH,1683782573
113,mount isa,-20.7333,139.5,26.87,18,0,2.57,AU,1683782574
114,hassi messaoud,31.6804,6.0729,21.76,39,7,5.23,DZ,1683782574
115,dudinka,69.4058,86.1778,-13.54,89,52,6.13,RU,1683782575
116,nuuk,64.1835,-51.7216,1.34,100,100,4.12,GL,1683782576
117,petropavlovsk-kamchatsky,53.0452,158.6483,5.33,61,75,4.0,RU,1683782576
118,ghadamis,30.1337,9.5007,18.29,56,0,4.38,LY,1683782577
119,tazovsky,67.4667,78.7,-11.93,88,22,5.23,RU,1683782578
120,calvi,42.5,8.8333,13.35,67,0,5.14,FR,1683782578
121,shingu,33.7333,135.9833,20.73,47,28,2.44,JP,1683782579
122,parras de la fuente,25.4167,-102.1833,21.6,12,0,2.16,MX,1683782579
123,tsiombe,-25.3,45.4833,23.47,73,99,2.13,MG,1683782580
124,machico,32.7,-16.7667,19.35,59,20,8.75,PT,1683782581
125,papatowai,-46.5619,169.4708,9.23,73,92,7.09,NZ,1683782582
126,vila franca do campo,37.7167,-25.4333,16.23,87,60,2.78,PT,1683782583
127,leninskiy,54.2781,37.4558,10.29,64,95,3.03,RU,1683782584
128,suva,-18.1416,178.4415,27.71,78,75,2.57,FJ,1683782357
129,margaret river,-33.95,115.0667,15.86,54,100,2.46,AU,1683782585
130,oum hadjer,13.2954,19.6966,30.49,45,79,2.54,TD,1683782586
131,port elizabeth,-33.918,25.5701,17.95,91,0,8.23,ZA,1683782586
132,punta arenas,-53.15,-70.9167,6.06,87,75,4.63,CL,1683782386
133,gazli,40.1333,63.45,31.99,13,100,1.84,UZ,1683782588
134,udachny,66.4167,112.4,-1.97,35,85,7.41,RU,1683782588
135,dourados,-22.2211,-54.8056,14.6,82,72,2.89,BR,1683782589
136,kerema,-7.9631,145.7785,28.13,85,100,3.43,PG,1683782589
137,uliastay,47.7417,96.8444,11.16,46,100,2.38,MN,1683782473
138,arno,60.1167,18.6333,6.55,60,49,3.95,SE,1683782591
139,cuyo,10.8525,121.0086,29.24,75,93,3.54,PH,1683782591
140,papao,-17.75,-149.55,27.82,87,100,16.02,PF,1683782592
141,bakchar,57.0186,82.0711,11.49,41,100,3.38,RU,1683782593
142,galveston,29.3669,-94.9669,24.47,91,100,6.69,US,1683782593
143,hawaiian paradise park,19.5933,-154.9731,22.8,88,100,0.0,US,1683782594
144,sigli,5.3848,95.9609,30.36,63,97,1.95,ID,1683782594
145,yuzhno-kurilsk,44.0306,145.8556,4.27,77,68,7.6,RU,1683782596
146,port mathurin,-19.6833,63.4167,25.46,74,88,9.1,MU,1683782597
147,aykhal,66.0,111.5,-3.56,75,65,7.57,RU,1683782597
148,fada,9.5667,8.3,21.39,88,61,1.46,NG,1683782598
149,edinburgh,55.9521,-3.1965,9.71,94,20,1.03,GB,1683782358
150,woolgoolga,-30.1106,153.2007,20.58,68,29,4.33,AU,1683782599
151,barah,13.7,30.3667,28.96,23,44,3.81,SD,1683782600
152,mount pearl,47.5166,-52.7813,1.19,90,40,8.75,CA,1683782499
153,port-vila,-17.7338,168.3219,25.78,83,100,5.14,VU,1683782601
154,paphos,34.7667,32.4167,21.88,43,0,2.57,CY,1683782602
155,geraldton,-28.7667,114.6,21.23,35,2,5.66,AU,1683782358
156,choibalsan,48.0667,114.5,21.13,21,100,5.96,MN,1683782603
157,mili,6.0815,171.735,28.31,81,79,8.72,MH,1683782604
158,ust-nera,64.5667,143.2,7.05,60,63,3.21,RU,1683782604
159,whitehorse,60.7161,-135.0538,12.43,35,75,1.54,CA,1683782605
160,la junta,37.985,-103.5438,17.81,82,100,4.63,US,1683782529
161,afaahiti,-17.75,-149.2833,26.93,85,100,14.76,PF,1683782606
162,enewetak,11.3474,162.3373,27.69,82,88,5.97,MH,1683782607
163,mayna,54.1135,47.6231,11.59,54,90,4.63,RU,1683782607
164,hamilton,39.1834,-84.5333,16.43,70,0,0.0,US,1683782306
165,trairi,-3.2778,-39.2689,24.46,89,32,2.36,BR,1683782460
166,bom sucesso,-21.0331,-44.7581,16.22,95,100,0.74,BR,1683782609
167,hasaki,35.7333,140.8333,20.16,43,50,5.42,JP,1683782610
168,launceston,-41.45,147.1667,13.8,74,100,6.69,AU,1683782610
169,opuwo,-18.0607,13.84,17.49,38,27,2.22,NA,1683782611
170,tual,-5.6667,132.75,27.28,82,100,7.3,ID,1683782612
171,la'ie,21.6477,-157.9253,25.0,77,32,0.89,US,1683782612
172,aral,40.5156,81.2636,26.15,6,0,5.74,CN,1683782613
173,susuman,62.7833,148.1667,7.85,54,28,6.08,RU,1683782613
174,nova xavantina,-14.6667,-52.35,20.54,74,87,1.52,BR,1683782614
175,buala,-8.145,159.5921,29.06,78,96,4.12,SB,1683782615
176,rikaze,29.25,88.8833,11.26,14,13,1.5,CN,1683782615
177,kachug,53.9606,105.8817,10.11,40,83,4.97,RU,1683782616
178,marang,5.2056,103.2059,32.95,65,62,2.69,MY,1683782617
179,tagta,41.6504,59.9164,22.97,56,100,3.09,TM,1683782618
180,barnesville,33.0546,-84.1557,20.99,83,100,0.0,US,1683782618
181,bopolu,7.0667,-10.4875,23.25,92,99,1.02,LR,1683782418
182,acapulco de juarez,16.8634,-99.8901,28.9,74,40,3.6,MX,1683782542
183,namtsy,62.7161,129.6658,4.65,45,95,6.25,RU,1683782621
184,la sarre,48.8002,-79.1996,9.92,70,9,2.15,CA,1683782621
185,jinka,5.65,36.65,19.11,79,97,1.78,ET,1683782622
186,luderitz,-26.6481,15.1594,14.43,74,71,5.16,NA,1683782623
187,rongelap,11.1635,166.8941,26.6,86,100,6.43,MH,1683782624
188,zaragoza,41.6561,-0.8773,11.68,69,0,7.2,ES,1683782583
189,ngaoundere,7.3167,13.5833,20.35,85,92,1.7,CM,1683782625
190,sumbawanga,-7.9667,31.6167,14.89,94,75,2.57,TZ,1683782625
191,tofol,5.3248,163.0078,28.91,74,100,2.95,FM,1683782626
192,caleta de carquin,-11.0925,-77.6267,21.28,86,61,3.21,PE,1683782627
193,san andres,12.5847,-81.7006,29.01,74,20,4.12,CO,1683782627
194,saint-philippe,-21.3585,55.7679,26.77,74,74,5.69,RE,1683782628
195,tubarjal,30.4999,38.216,27.28,17,71,8.71,SA,1683782629
196,cao bang,22.6667,106.25,24.07,93,99,1.71,VN,1683782630
197,conduaga,8.862,117.4893,30.93,66,85,2.6,PH,1683782631
198,shatrovo,56.5167,64.6333,13.41,26,58,2.14,RU,1683782631
199,umluj,25.0213,37.2685,27.08,32,0,1.72,SA,1683782632
200,kukawa,12.9234,13.5606,29.44,13,39,3.21,NG,1683782633
201,beyla,8.6833,-8.6333,20.99,90,100,1.51,GN,1683782634
202,freetown,8.484,-13.2299,25.84,83,75,4.63,SL,1683782635
203,le puy-en-velay,45.0437,3.8852,7.27,97,100,1.65,FR,1683782635
204,krasnoshchekovo,51.6708,82.7289,22.33,42,99,2.7,RU,1683782636
205,cobram,-35.9167,145.65,18.04,40,0,2.8,AU,1683782636
206,nar'yan-mar,67.6713,53.087,-0.4,83,61,4.72,RU,1683782637
207,saldanha,-33.0117,17.9442,15.03,85,100,2.07,ZA,1683782638
208,arauquita,7.0292,-71.4281,22.71,99,100,0.31,CO,1683782638
209,pyrzyce,53.1462,14.8926,13.0,74,93,5.14,PL,1683782639
210,lesnoy,57.6198,63.0784,10.46,63,41,4.1,RU,1683782639
211,tamanrasset,22.785,5.5228,20.1,24,99,8.56,DZ,1683782640
212,salahonda,2.1019,-78.7217,26.84,83,100,2.48,CO,1683782641
213,lompoc,34.6391,-120.4579,12.1,83,100,7.6,US,1683782641
214,vorgashor,67.5833,63.95,-6.68,90,71,1.91,RU,1683782642
215,mezhdurechensk,53.6942,88.0603,14.88,35,100,2.04,RU,1683782643
216,namibe,-15.1961,12.1522,22.88,73,4,2.16,AO,1683782643
217,fernie,49.5,-115.0687,7.11,83,98,1.03,CA,1683782644
218,constantia,44.1833,28.65,10.39,63,0,3.79,RO,1683782645
219,kapuskasing,49.4169,-82.4331,7.05,81,75,1.54,CA,1683782461
220,klaksvik,62.2266,-6.589,8.51,85,22,2.86,FO,1683782646
221,murzuq,25.9155,13.9184,16.91,56,0,3.47,LY,1683782647
222,savelugu,9.6244,-0.8253,27.19,69,47,4.8,GH,1683782648
223,myingyan,21.4667,95.3833,38.5,31,30,4.08,MM,1683782648
224,cantaura,9.3057,-64.3584,25.41,63,42,4.91,VE,1683782649
225,cabo san lucas,22.8909,-109.9124,24.23,56,13,5.44,MX,1683782650
226,samana,19.2056,-69.3369,23.91,90,95,2.34,DO,1683782650
227,nemuro,43.3236,145.575,4.41,81,79,6.81,JP,1683782651
228,egersund,58.4513,5.9997,11.16,97,100,1.78,NO,1683782536
229,vyksa,55.3175,42.1744,12.17,54,99,2.62,RU,1683782652
230,blagoveshchensk,50.2667,127.5333,25.34,14,0,2.0,RU,1683782653
231,anyksciai,55.5256,25.1026,10.34,64,19,1.76,LT,1683782654
232,montale,43.9356,11.0171,13.25,94,57,1.29,IT,1683782654
233,sevsk,52.1491,34.4926,8.81,60,47,2.77,RU,1683782655
234,urengoy,65.9667,78.3667,-7.98,74,69,6.9,RU,1683782655
235,la romana,18.4273,-68.9728,24.37,86,3,2.32,DO,1683782656
236,kenai,60.5544,-151.2583,11.05,56,100,7.2,US,1683782657
237,san miguel de salcedo,-1.0333,-78.5667,12.75,99,100,2.58,EC,1683782657
238,terenozek,45.05,64.9833,30.9,15,100,1.59,KZ,1683782658
239,mana,5.6592,-53.7767,23.76,94,100,1.69,GF,1683782659
240,isafjordur,66.0755,-23.124,5.51,90,20,1.69,IS,1683782659
241,flying fish cove,-10.4217,105.6791,27.82,89,100,7.2,CX,1683782660
242,naracoorte,-36.9579,140.7383,18.37,41,3,5.82,AU,1683782660
243,port lincoln,-34.7333,135.8667,18.61,46,100,8.37,AU,1683782661
244,ancud,-41.8697,-73.8203,12.79,97,96,4.82,CL,1683782662
245,tromso,69.6496,18.957,6.88,93,75,2.57,NO,1683782586
246,belyy yar,53.6039,91.3903,12.94,35,0,5.0,RU,1683782663
247,fiambala,-27.6871,-67.6149,15.11,53,1,0.71,AR,1683782664
248,ban karon,7.8477,98.2985,32.95,99,70,1.11,TH,1683782664
249,hatillo,18.4863,-66.8254,25.03,81,3,2.15,PR,1683782665
250,masterton,-40.9597,175.6575,8.27,89,100,3.73,NZ,1683782665
251,beidao,34.5686,105.8933,21.46,25,93,3.17,CN,1683782666
252,viedma,-40.8135,-62.9967,10.11,69,100,5.29,AR,1683782667
253,laojunmiao,39.8333,97.7333,15.85,14,31,6.65,CN,1683782667
254,holly,42.792,-83.6277,13.99,76,2,0.45,US,1683782623
255,bengkulu,-3.8004,102.2655,30.32,65,29,4.11,ID,1683782669
256,dayr hafir,36.1569,37.7078,24.34,30,93,2.14,SY,1683782669
257,burutu,5.3509,5.5076,26.38,88,95,2.02,NG,1683782670
258,twentynine palms,34.1356,-116.0542,20.63,34,0,1.34,US,1683782670
259,mata-utu,-13.2816,-176.1745,28.72,76,12,5.83,WF,1683782671
260,fuglafjordur,62.244,-6.814,8.26,87,29,3.02,FO,1683782672
261,mount gambier,-37.8333,140.7667,17.51,50,5,4.54,AU,1683782672
262,inirida,3.8653,-67.9239,21.98,99,100,0.85,CO,1683782673
263,bereznik,62.8551,42.7072,12.68,60,68,2.32,RU,1683782673
264,banda aceh,5.5577,95.3222,30.86,62,93,2.03,ID,1683782674
265,tughyl,47.7252,84.2063,17.56,42,100,4.79,KZ,1683782674
266,sakiai,54.9547,23.0358,9.61,71,12,2.66,LT,1683782675
267,makubetsu,45.3714,141.8211,7.84,61,75,6.17,JP,1683782676
268,uturoa,-16.7333,-151.4333,26.94,80,89,11.0,PF,1683782676
269,andergrove,-21.0833,149.1833,26.47,70,26,6.11,AU,1683782677
270,fengxiang,47.5833,130.8333,21.32,15,60,2.09,CN,1683782677
271,pasuquin,18.3328,120.6177,32.97,58,20,4.12,PH,1683782595
272,haiku-pauwela,20.9219,-156.3051,22.25,86,40,7.72,US,1683782679
273,mitsamiouli,-11.3847,43.2844,27.04,69,2,1.64,KM,1683782679
274,chibougamau,49.9168,-74.3659,8.79,57,0,2.57,CA,1683782680
275,happy valley-goose bay,53.3168,-60.3315,-0.83,64,75,2.06,CA,1683782680
276,ugoofaaru,5.6667,73.0,28.39,78,100,4.78,MV,1683782475
277,barcelos,41.5388,-8.6151,11.58,87,61,2.97,PT,1683782681
278,pakruojis,55.9667,23.8667,12.44,66,67,2.38,LT,1683782682
279,colonia,50.9333,6.95,13.31,89,100,0.0,DE,1683782482
280,suntar,62.1444,117.6319,5.25,46,100,2.59,RU,1683782683
281,qamdo,31.1667,97.2333,7.76,28,84,2.72,CN,1683782684
282,nha trang,12.25,109.1833,34.0,73,98,3.59,VN,1683782684
283,jabor,5.921,169.6434,28.34,80,100,7.03,MH,1683782685
284,andrushivka,50.0229,29.0202,7.83,68,20,2.3,UA,1683782685
285,samitah,16.596,42.9444,30.35,69,68,1.0,SA,1683782686
286,helena valley west central,46.6629,-112.0604,12.27,67,100,1.34,US,1683782687
287,kurumkan,54.3,110.3,10.22,57,100,4.38,RU,1683782687
288,lobito,-12.3481,13.5456,24.9,84,34,1.59,AO,1683782688
289,sabang,5.8933,95.3214,28.82,69,93,1.32,ID,1683782688
290,sos'va,59.1766,61.8558,9.04,50,66,2.77,RU,1683782689
291,carutapera,-1.195,-46.02,24.24,94,81,1.6,BR,1683782690
292,timbuktu,16.7735,-3.0074,29.13,11,100,4.71,ML,1683782691
293,arteche,12.2645,125.4048,28.34,84,97,3.13,PH,1683782691
294,sultanah,24.4926,39.5857,29.25,11,0,1.03,SA,1683782692
295,minas de marcona,-15.2119,-75.1103,14.32,88,45,4.73,PE,1683782692
296,ceres,37.5949,-120.9577,14.99,71,0,4.12,US,1683782693
297,askoy,60.4092,5.226,10.01,97,75,1.03,NO,1683782694
298,rosetta,31.4044,30.4164,20.42,72,70,4.09,EG,1683782694
299,oyama,36.3,139.8,21.99,31,30,3.8,JP,1683782695
300,sisimiut,66.9395,-53.6735,-2.79,76,70,6.12,GL,1683782695
301,woods creek,47.8787,-121.8985,14.68,73,38,0.89,US,1683782696
302,revda,56.801,59.9303,12.01,45,93,2.04,RU,1683782697
303,trondheim,63.4305,10.3951,9.03,88,15,0.58,NO,1683782697
304,tarancon,40.0085,-3.0073,7.15,64,94,2.94,ES,1683782698
305,ramos arizpe,25.55,-100.9667,22.75,29,0,0.0,MX,1683782403
306,dabakala,8.3667,-4.4333,23.61,88,98,1.85,CI,1683782699
307,vilyuchinsk,52.9306,158.4028,6.15,90,100,4.38,RU,1683782700
308,california,38.3004,-76.5074,16.48,87,0,2.57,US,1683781917
309,khandud,36.9513,72.318,6.23,33,1,1.45,AF,1683782701
310,bamboo flat,11.7,92.7167,31.05,70,75,4.12,IN,1683782701
311,houlton,46.1262,-67.8403,11.23,50,0,2.57,US,1683782702
312,puerto baquerizo moreno,-0.9,-89.6,26.07,87,92,3.7,EC,1683782703
313,gazipasa,36.2694,32.3179,18.05,77,40,1.54,TR,1683782703
314,zimovniki,47.1483,42.4633,8.38,84,91,4.96,RU,1683782704
315,colares,38.7992,-9.4469,15.61,75,0,6.26,PT,1683782705
316,dunay,42.8803,132.3375,9.44,69,0,4.46,RU,1683782705
317,crane,31.3974,-102.3501,25.25,56,1,10.39,US,1683782706
318,kayangel,8.0823,134.7173,29.17,68,100,1.23,PW,1683782707
319,cidreira,-30.1811,-50.2056,14.25,80,6,4.09,BR,1683782707
320,kangding,30.0513,101.9603,7.82,89,98,3.16,CN,1683782708
321,inderbor,48.55,51.7833,17.67,52,85,3.92,KZ,1683782416
322,porto novo,6.4965,2.6036,27.3,83,95,2.92,BJ,1683782709
323,vallenar,-28.5708,-70.7581,17.84,60,76,0.69,CL,1683782710
324,ta`u,-14.2336,-169.5144,27.53,72,10,6.77,AS,1683782711
325,kingston,17.997,-76.7936,27.53,82,20,6.69,JM,1683782711
326,ma'an,26.9775,110.7211,14.81,91,100,1.79,CN,1683782712
327,novaya igirma,57.1334,103.9112,9.16,32,50,2.67,RU,1683782713
328,bel ombre,-4.6167,55.4167,28.91,74,20,6.17,SC,1683782713
329,altar,30.7,-111.8167,18.54,23,0,1.75,MX,1683782714
330,saint-felix-de-valois,46.1668,-73.4324,14.18,57,43,0.45,CA,1683782714
331,kisangani,0.5167,25.2,21.28,96,57,0.35,CD,1683782715
332,port blair,11.6667,92.75,31.02,70,75,4.12,IN,1683782716
333,waddan,29.1614,16.139,16.08,83,68,7.69,LY,1683782716
334,owando,-0.4819,15.8999,21.28,92,34,0.6,CG,1683782717
335,pangody,65.85,74.4859,-9.51,80,19,5.33,RU,1683782717
336,hammerfest,70.6634,23.6821,5.25,100,75,2.57,NO,1683782633
337,bich'vinta,43.1592,40.3378,11.1,91,100,3.19,GE,1683782719
338,ojinaga,29.5667,-104.4167,24.53,15,0,3.6,MX,1683782719
339,bardai,11.65,7.2333,25.24,61,93,6.38,NG,1683782720
340,remire-montjoly,4.9167,-52.2667,24.02,100,100,1.03,GF,1683782720
341,ke-macina,13.9623,-5.3572,31.28,13,98,3.71,ML,1683782721
342,kapa'a,22.0752,-159.319,24.99,85,100,5.66,US,1683782439
343,coquimbo,-29.9533,-71.3436,12.85,94,100,1.54,CL,1683782534
344,bridlington,54.0831,-0.1919,11.61,93,34,0.89,GB,1683782723
345,sal rei,16.1833,-22.9167,21.58,86,8,7.31,CV,1683782724
346,altai,46.3722,96.2583,11.06,34,5,4.95,MN,1683782474
347,san patricio,28.017,-97.5169,26.97,93,25,5.32,US,1683782725
348,noumea,-22.2763,166.4572,24.44,99,100,6.55,NC,1683782726
349,xai-xai,-25.0519,33.6442,18.97,79,37,1.78,MZ,1683782726
350,sirte,31.2089,16.5887,17.87,91,17,7.13,LY,1683782727
351,genhe,50.7833,121.5167,22.36,15,100,4.21,CN,1683782728
352,alaghsas,17.0187,8.0168,29.94,21,55,7.2,NE,1683782728
353,raduzhny,62.0961,77.475,0.21,67,100,5.0,RU,1683782729
354,kavieng,-2.5744,150.7967,28.99,73,52,0.35,PG,1683782729
355,bowen,-20.0167,148.2333,25.13,61,80,8.07,AU,1683782730
356,axim,4.8699,-2.2405,26.86,82,100,2.55,GH,1683782731
357,uacu cungo,-11.3634,15.1208,12.1,69,2,1.51,AO,1683782731
358,naze,28.3667,129.4833,22.51,54,83,3.5,JP,1683782732
359,prince rupert,54.3161,-130.3201,10.83,79,75,6.69,CA,1683782732
360,petrovskaya,45.4314,37.955,11.16,65,21,1.64,RU,1683782733
361,amga,60.8953,131.9608,4.88,67,100,1.67,RU,1683782733
362,ketchikan,55.3422,-131.6461,11.26,71,75,7.72,US,1683782734
363,tisul',55.7611,88.3122,13.64,28,100,2.37,RU,1683782735
364,selfoss,63.9331,-20.9971,7.25,82,30,1.44,IS,1683782736
365,acajutla,13.5928,-89.8275,27.91,78,98,3.55,SV,1683782736
366,kula,38.5473,28.6498,14.02,10,85,25.93,TR,1683782521
367,uusikaupunki,60.8004,21.4084,8.4,63,85,4.0,FI,1683782737
368,chernomorskoye,45.5039,32.6997,11.46,66,44,3.74,UA,1683782738
369,kapiri mposhi,-13.9652,28.6809,11.87,81,58,1.98,ZM,1683782739
370,port alfred,-33.5906,26.891,15.66,69,0,0.89,ZA,1683782739
371,colac,-38.3333,143.5833,16.21,50,3,4.17,AU,1683782740
372,jumla,29.2747,82.1838,17.53,31,34,2.9,NP,1683782740
373,zheleznogorsk,52.331,35.3711,8.52,64,83,3.21,RU,1683782741
374,gallup,35.5281,-108.7426,8.42,54,75,3.6,US,1683782618
375,den chai,17.9837,100.0522,36.16,40,45,1.86,TH,1683782742
376,newman,37.3138,-121.0208,15.16,50,0,2.01,US,1683782743
377,palmer,42.1584,-72.3287,14.23,75,0,0.0,US,1683782743
378,valparaiso,-33.0393,-71.6273,15.0,66,0,2.06,CL,1683782466
379,siwa oasis,29.2041,25.5195,21.55,45,21,3.9,EG,1683782744
380,guarapari,-20.6667,-40.4975,23.27,91,100,1.77,BR,1683782745
381,gaspe,48.8334,-64.4819,0.95,86,0,0.0,CA,1683782560
382,piacabucu,-10.4056,-36.4344,23.75,87,2,1.05,BR,1683782746
383,bettembourg,49.5186,6.1028,9.53,94,75,3.09,LU,1683782747
384,nikolayevka,53.1257,47.2041,12.3,54,84,4.42,RU,1683782747
385,tsengel,49.4783,100.8894,7.43,65,100,2.72,MN,1683782748
386,muynoq,43.7683,59.0214,21.52,55,100,7.05,UZ,1683782749
387,airway heights,47.6446,-117.5933,11.14,58,0,2.06,US,1683782750
388,kismayo,-0.3582,42.5454,27.78,75,49,6.32,SO,1683782751
389,concepcion,-36.827,-73.0498,8.89,93,94,3.09,CL,1683782478
390,akureyri,65.6835,-18.0878,4.96,93,100,1.54,IS,1683782752
391,lillehammer,61.1146,10.4674,5.05,97,64,0.49,NO,1683782753
392,igarka,67.4667,86.5833,-6.96,73,55,8.02,RU,1683782753
393,grantsville,40.5999,-112.4644,13.99,51,100,1.79,US,1683782754
394,carnarvon,-24.8667,113.6333,24.79,48,0,6.17,AU,1683782754
395,ngerengere,-6.75,38.1167,23.38,82,25,1.37,TZ,1683782755
396,maintirano,-18.0667,44.0167,24.29,74,98,2.21,MG,1683782756
397,nguigmi,14.2495,13.1092,27.73,18,99,4.54,NE,1683782756
398,baramula,34.2,74.35,18.6,31,6,1.97,IN,1683782757
399,malindi,-3.2175,40.1191,28.09,78,75,4.12,KE,1683782757
400,arkhara,49.4212,130.0842,19.36,20,12,1.02,RU,1683782758
401,paita,-5.0892,-81.1144,24.51,78,11,4.45,PE,1683782758
402,belmonte,-15.8631,-38.8828,23.12,87,32,3.46,BR,1683782759
403,south hedland,-20.4089,118.5983,29.96,16,22,6.69,AU,1683782760
404,kununurra,-15.7667,128.7333,28.99,20,41,4.12,AU,1683782761
405,sabha,27.0377,14.4283,15.65,65,0,4.15,LY,1683782761
406,kokopo,-4.352,152.2633,29.11,74,21,2.65,PG,1683782762
407,saudarkrokur,65.7461,-19.6394,4.71,88,15,2.79,IS,1683782762
408,st. john's,47.5649,-52.7093,1.65,90,40,8.75,CA,1683782763
409,sala consilina,40.3912,15.5989,11.46,96,84,2.18,IT,1683782295
410,murghob,38.1702,73.9667,1.12,34,0,0.76,TJ,1683782764
411,polyarnyy,69.1989,33.4478,2.81,99,100,2.31,RU,1683782765
412,kone,-21.0595,164.8658,24.69,61,99,3.44,NC,1683782765
413,goniri,11.4833,12.3144,26.76,53,79,4.21,NG,1683782766
414,inarajan village,13.2736,144.7484,32.54,91,23,3.46,GU,1683782767
415,cockburn town,21.4612,-71.1419,26.74,83,44,5.16,TC,1683782580
416,san luis de la loma,17.2706,-100.8939,27.1,74,70,2.34,MX,1683782768
417,de aar,-30.6497,24.0123,9.79,54,2,1.83,ZA,1683782769
418,harsova,44.6833,27.9333,10.03,70,5,1.72,RO,1683782769
419,miyaly,48.8844,53.7836,16.14,50,76,3.74,KZ,1683782770
420,palmaner,13.2,78.75,31.2,44,65,2.41,IN,1683782770
421,adrar,20.5022,-10.0711,28.9,13,87,4.36,MR,1683782771
422,rudnya,54.947,31.0934,9.83,60,78,3.46,RU,1683782772
423,velikiye luki,56.34,30.5452,11.48,59,42,1.44,RU,1683782772
424,pitimbu,-7.4706,-34.8086,25.33,80,16,3.35,BR,1683782773
425,kuna,43.4918,-116.4201,13.71,57,0,4.12,US,1683782773
426,itoman,26.1247,127.6694,26.21,52,20,6.17,JP,1683782774
427,wailea,19.8858,-155.123,22.72,86,100,0.0,US,1683782775
428,yoloten,37.2989,62.3597,27.23,29,100,8.9,TM,1683782776
429,lorengau,-2.0226,147.2712,28.6,78,45,0.41,PG,1683782777
430,diamantino,-14.4086,-56.4461,20.83,95,100,1.61,BR,1683782778
431,koulamoutou,-1.1303,12.4736,20.43,97,58,0.02,GA,1683782779
432,fort saskatchewan,53.7168,-113.2187,14.43,85,75,2.06,CA,1683782595
433,dhuusamarreeb,5.535,46.3861,27.77,61,67,8.33,SO,1683782719
434,kurnool,15.8309,78.0425,33.89,47,96,2.17,IN,1683782780
435,apatin,45.6711,18.9847,11.98,68,100,8.2,RS,1683782781
436,shakawe,-18.3667,21.85,13.2,53,0,2.38,BW,1683782781
437,constitucion,-35.3333,-72.4167,14.34,64,100,2.96,CL,1683782782
438,ouadda,8.0777,22.4007,22.41,69,99,1.49,CF,1683782783
439,lapinlahti,65.5833,30.5667,4.34,95,100,3.77,RU,1683782783
440,rio grande,-32.035,-52.0986,13.45,79,36,6.53,BR,1683782784
441,berdigestyakh,62.0989,126.6992,2.02,60,100,3.88,RU,1683782784
442,vorkuta,67.5,64.0,-6.12,89,62,1.91,RU,1683782785
443,weno,7.4515,151.8468,28.52,74,100,3.21,FM,1683782786
444,mirnyy,62.5353,113.9611,1.8,37,91,4.92,RU,1683782786
445,tahe,52.3333,124.7333,24.24,16,75,3.35,CN,1683782787
446,chiredzi,-21.05,31.6667,16.36,80,0,0.61,ZW,1683782787
447,benguela,-12.5763,13.4055,23.96,88,27,1.47,AO,1683782788
448,evinayong,1.4368,10.5512,19.39,99,98,0.24,GQ,1683782789
449,puerto lleras,3.0223,-73.4044,21.16,97,100,1.31,CO,1683782789
450,sittwe,20.15,92.9,31.57,60,26,3.75,MM,1683782790
451,cruzeiro do sul,-29.5128,-51.9853,12.82,94,22,1.33,BR,1683782790
452,vinton,37.281,-79.897,15.81,83,0,0.0,US,1683782791
453,jinshi,29.6049,111.8701,19.92,61,97,1.97,CN,1683782792
454,saint croix,17.7397,-64.7388,25.25,80,20,3.6,VI,1683782792
455,helensburgh,56.0061,-4.7265,10.12,91,77,0.89,GB,1683782793
456,saint-jean-de-monts,46.7833,-2.0667,11.6,78,10,5.13,FR,1683782793
457,astaneh-ye ashrafiyeh,37.2596,49.9444,17.96,73,1,1.37,IR,1683782794
458,pyt-yakh,60.7499,72.8582,4.96,57,83,4.64,RU,1683782794
459,gebeit,21.0667,36.3167,27.08,21,2,0.53,SD,1683782795
460,vylkove,45.4021,29.586,10.6,65,5,1.22,UA,1683782796
461,acarau,-2.8856,-40.12,25.39,87,22,3.42,BR,1683782709
462,fonte boa,-2.4959,-66.2662,22.54,99,100,0.47,BR,1683782797
463,zhob,31.3411,69.4481,27.45,14,52,1.12,PK,1683782797
464,alice springs,-23.7,133.8833,20.75,21,0,3.09,AU,1683782780
465,monopoli,40.9559,17.2896,16.19,84,100,7.6,IT,1683782798
466,tuy hoa,13.0833,109.3,31.77,65,100,3.77,VN,1683782799
467,queenstown,-31.8976,26.8753,9.9,53,28,2.92,ZA,1683782800
468,severnoye,56.3491,78.3619,10.0,49,100,2.64,RU,1683782800
469,aripuana,-9.1667,-60.6333,23.8,83,100,1.04,BR,1683782801
470,bratsk,56.1325,101.6142,9.27,38,6,0.93,RU,1683782801
471,okhotsk,59.3833,143.3,3.38,78,33,4.37,RU,1683782802
472,tralee,52.2704,-9.7026,9.65,95,28,5.58,IE,1683782803
473,khandyga,62.6667,135.6,2.71,93,100,1.3,RU,1683782803
474,lata,40.1629,-8.3327,10.6,95,8,1.89,PT,1683782804
475,houdain,50.4504,2.5378,11.48,97,85,3.16,FR,1683782804
476,mazagao,-0.115,-51.2894,25.03,96,100,1.34,BR,1683782805
477,minab,27.1467,57.0801,34.17,17,0,0.67,IR,1683782805
478,fort bragg,35.139,-79.006,16.32,82,0,0.0,US,1683782806
479,egilsstadir,65.2653,-14.3948,6.95,81,75,0.0,IS,1683782807
480,manggar,-2.8833,108.2667,30.47,70,70,4.38,ID,1683782807
481,san jose del cabo,23.0589,-109.6977,24.22,62,0,1.54,MX,1683782665
482,prado,-17.3411,-39.2208,21.76,89,11,1.3,BR,1683782808
483,tolanaro,-25.0319,46.9987,23.04,88,40,5.14,MG,1683782809
484,nicoya,10.1483,-85.452,27.47,70,73,1.09,CR,1683782809
485,rechka-vydrino,51.485,104.8461,5.19,73,100,2.82,RU,1683782810
486,kurtamysh,54.9103,64.4319,12.78,35,1,3.42,RU,1683782811
487,salalah,17.0151,54.0924,30.05,70,40,2.57,OM,1683782811
488,harstad,68.799,16.5293,9.79,85,100,8.05,NO,1683782812
489,bandar-e genaveh,29.5791,50.517,29.01,44,47,4.15,IR,1683782812
490,castillos,-34.1667,-53.8333,11.84,69,92,4.24,UY,1683782813
491,pacific grove,36.6177,-121.9166,12.03,81,20,3.09,US,1683782813
492,dampit,-8.2116,112.7493,26.49,85,45,1.4,ID,1683782814
493,nzerekore,7.7562,-8.8179,22.01,94,100,0.55,GN,1683782815
494,guerrero negro,27.9769,-114.0611,14.6,73,99,8.98,MX,1683782816
495,thyolo,-16.0678,35.1405,18.01,81,100,0.51,MW,1683782816
496,glace bay,46.1969,-59.957,0.99,79,0,2.06,CA,1683782760
497,san antero,9.3741,-75.7589,26.22,83,100,1.97,CO,1683782817
498,puerto santa,-8.9906,-78.6456,21.42,87,28,2.71,PE,1683782818
499,matonga,-2.3833,34.0833,18.66,87,91,1.8,TZ,1683782819
500,roma,43.2128,-75.4557,9.93,83,0,0.0,US,1683782128
501,rafah,31.287,34.2595,20.78,66,13,0.38,PS,1683782820
502,krivosheino,57.3431,83.9261,12.23,35,100,2.75,RU,1683782820
503,burang,30.25,81.1667,3.68,42,11,2.66,CN,1683782821
504,saint-joseph,-21.3667,55.6167,26.93,70,68,5.68,RE,1683782822
505,rioblanco,3.5308,-75.6806,16.96,95,98,1.78,CO,1683782823
506,cedeira,43.6797,-8.0209,12.99,82,41,2.42,ES,1683782823
507,lamu,-2.2717,40.902,29.12,81,60,5.66,KE,1683782824
508,markovo,57.3206,107.0881,5.92,54,100,2.76,RU,1683782824
509,hilo,19.7297,-155.09,24.6,83,100,0.45,US,1683782825
510,puro,12.4841,123.3827,30.29,69,94,4.6,PH,1683782826
511,enriquillo,17.9,-71.2333,24.52,84,1,3.59,DO,1683782826
512,changleng,28.7,115.8167,18.05,76,98,2.77,CN,1683782827
513,jamiltepec,16.2833,-97.8167,23.94,76,62,1.17,MX,1683782827
514,badagry,6.4167,2.8833,27.69,83,83,4.13,NG,1683782828
515,tatarsk,55.219,75.9828,7.76,83,100,5.1,RU,1683782829
516,sao joao da barra,-21.6403,-41.0511,21.95,94,100,4.43,BR,1683782829
517,kashin,57.3592,37.6081,12.3,56,74,0.37,RU,1683782830
518,el granada,37.5027,-122.4694,13.3,79,100,6.69,US,1683782830
519,antonio enes,-16.2325,39.9086,22.75,88,75,2.73,MZ,1683782831
520,broken hill,-31.95,141.4333,19.11,30,0,2.41,AU,1683782832
521,luumaki,60.9262,27.5814,13.03,51,100,2.12,FI,1683782832
522,mogadishu,2.0371,45.3438,28.93,79,40,5.66,SO,1683782833
523,plettenberg bay,-34.0527,23.3716,16.31,80,44,3.88,ZA,1683782833
524,labytnangi,66.6572,66.4183,-6.07,89,99,1.44,RU,1683782834
525,kuala terengganu,5.3302,103.1408,32.97,70,20,2.57,MY,1683782835
526,general villegas,-35.0328,-63.0125,11.28,55,100,3.1,AR,1683782835
527,langepas,61.2544,75.2124,4.74,52,73,4.87,RU,1683782836
528,i-n-salah,27.1935,2.4607,23.9,27,28,5.3,DZ,1683782837
529,ust'-barguzin,53.45,108.9833,5.02,75,100,2.41,RU,1683782837
530,new norfolk,-42.7826,147.0587,15.51,54,31,0.24,AU,1683782838
531,luocheng,29.3848,104.0286,17.96,71,100,1.73,CN,1683782838
532,tonghae,37.5439,129.1069,18.36,60,26,5.79,KR,1683782839
533,gwadar,25.1216,62.3254,30.4,64,0,5.21,PK,1683782840
534,eyl,7.9803,49.8164,30.62,57,92,7.07,SO,1683782840
535,arraial do cabo,-22.9661,-42.0278,22.86,78,100,4.62,BR,1683782841
536,alpena,45.0617,-83.4327,11.73,87,75,0.45,US,1683782841
537,undurkhaan,47.3194,110.6556,18.04,22,60,6.96,MN,1683782842
538,motueka,-41.1333,173.0167,11.72,62,98,3.14,NZ,1683782843
539,aoulef,26.9667,1.0833,24.79,24,52,4.29,DZ,1683782843
540,taza,34.25,-3.75,18.38,51,100,0.43,MA,1683782845
541,kerikeri,-35.2268,173.9474,11.62,88,32,5.65,NZ,1683782846
542,kargasok,59.0556,80.8572,13.26,28,72,4.48,RU,1683782846
543,bubaque,11.2833,-15.8333,26.87,68,99,5.73,GW,1683782847
544,poquoson,37.1224,-76.3458,15.99,88,0,0.0,US,1683782584
545,southbury,41.4815,-73.2132,11.72,76,0,0.0,US,1683782848
546,port saint john's,-31.6229,29.5448,18.24,46,4,3.19,ZA,1683782849
547,kencong,-8.2833,113.3667,28.76,80,49,2.92,ID,1683782849
548,xilin hot,43.9667,116.0333,14.22,53,100,5.31,CN,1683782850
549,dondo,-19.6094,34.7431,20.73,92,50,1.46,MZ,1683782850
550,bonthe,7.5264,-12.505,26.56,79,95,0.75,SL,1683782851
551,korla,41.7597,86.1469,23.3,14,19,4.03,CN,1683782852
552,ivdel',60.6911,60.4206,7.22,52,18,2.15,RU,1683782852
553,ar rabiyah,29.295,47.9331,29.84,57,45,1.34,KW,1683782853
554,shiraoi,42.55,141.35,12.1,54,56,1.97,JP,1683782853
555,tamale,9.4008,-0.8393,26.54,72,40,4.49,GH,1683782854
556,salinopolis,-0.6136,-47.3561,26.35,85,97,3.65,BR,1683782633
557,nagqu,31.5,92.0,-1.93,69,100,3.62,CN,1683782855
558,shalqar,47.8333,59.6,19.21,51,97,5.51,KZ,1683782856
